[
  {
    "id": "23984",
    "location": "1763512",
    "region": "Laggan Subdivision (Canadian Pacific)",
    "cross_note": "AWS",
    "address": "11 St SW (Along 10 Ave SW)",
    "lat": 51.04472,
    "lng": -114.08874,
    "select": false
  },
  {
    "id": "24827",
    "location": "1763533",
    "region": "Macleod Subdivision (Canadian Pacific)",
    "cross_note": "AWS",
    "address": "58 Avenue W Centre St Se",
    "lat": 51.00135,
    "lng": -114.065,
    "select": false
  },
  {
    "id": "24828",
    "location": "1763536",
    "region": "Macleod Subdivision (Canadian Pacific)",
    "cross_note": "AWS",
    "address": "61 Ave & Ctr St Se - Lrt",
    "lat": 50.99771,
    "lng": -114.06557,
    "select": false
  },
  {
    "id": "35802",
    "location": "1763515",
    "region": "Laggan Subdivision (Canadian Pacific)",
    "cross_note": "AWS",
    "address": "Douglas Fir Trail",
    "lat": 51.0555,
    "lng": -114.1408,
    "select": false
  },
  {
    "id": "24009",
    "location": "1763519",
    "region": "Laggan Subdivision (Canadian Pacific)",
    "cross_note": "AWS",
    "address": "32 Ave NW (67 St NW)",
    "lat": 51.0815,
    "lng": -114.184,
    "select": false
  },
  {
    "id": "762544",
    "location": "1763538",
    "region": "Macleod Subdivision (Canadian Pacific)",
    "cross_note": "AWS",
    "address": "Anderson Lrt Bus Crossing",
    "lat": 50.9515,
    "lng": -114.0736,
    "select": false
  },
  {
    "id": "762549",
    "location": "1763540",
    "region": "Macleod Subdivision (Canadian Pacific)",
    "cross_note": "AWS",
    "address": "Shawnessy Lrt Pedestrian",
    "lat": 50.9107,
    "lng": -114.0704,
    "select": false
  },
  {
    "id": "35286",
    "location": "1763542",
    "region": "Macleod Subdivision (Canadian Pacific)",
    "cross_note": "AWS",
    "address": "162 Avenue",
    "lat": 50.90316,
    "lng": -114.07048,
    "select": false
  },
  {
    "id": "762550",
    "location": "1763544",
    "region": "Macleod Subdivision (Canadian Pacific)",
    "cross_note": "AWS",
    "address": "Somerset-Bridlewood Lrt",
    "lat": 50.89982,
    "lng": -114.06924,
    "select": false
  },
  {
    "id": "762530",
    "location": "1763549",
    "region": "Macleod Subdivision (Canadian Pacific)",
    "cross_note": "AWS",
    "address": "Shawville Gate Sw",
    "lat": 50.8984,
    "lng": -114.06836,
    "select": false
  },
  {
    "id": "27453",
    "location": "1763423",
    "region": "Red Deer Subdivision (Canadian Pacific)",
    "cross_note": "AWS",
    "address": "Hwy 582 (E Of 20 St)",
    "lat": 51.66622,
    "lng": -114.13666,
    "select": false
  },
  {
    "id": "27469",
    "location": "1763427",
    "region": "Red Deer Subdivision (Canadian Pacific)",
    "cross_note": "AWS",
    "address": "Twp 320 (E. Of Rge Rd 21)",
    "lat": 51.70764,
    "lng": -114.16327,
    "select": false
  },
  {
    "id": "27471",
    "location": "1763429",
    "region": "Red Deer Subdivision (Canadian Pacific)",
    "cross_note": "AWS",
    "address": "Twp 322 (E. Of Rge Rd 20)",
    "lat": 51.73679,
    "lng": -114.14179,
    "select": false
  },
  {
    "id": "27474",
    "location": "1763433",
    "region": "Red Deer Subdivision (Canadian Pacific)",
    "cross_note": "AWS",
    "address": "54 St (W. Of 48 Ave)",
    "lat": 51.78784,
    "lng": -114.10635,
    "select": false
  },
  {
    "id": "27475",
    "location": "1763440",
    "region": "Red Deer Subdivision (Canadian Pacific)",
    "cross_note": "AWS",
    "address": "50 St. (W. Of 48 Ave)",
    "lat": 51.79189,
    "lng": -114.10445,
    "select": false
  },
  {
    "id": "23134",
    "location": "1763456",
    "region": "Indian head Subdivision (Canadian Pacific)",
    "cross_note": "AWS",
    "address": "Chatham St (S. Of N. Pacific Ave)",
    "lat": 50.5375,
    "lng": -103.885,
    "select": false
  },
  {
    "id": "23150",
    "location": "1763460",
    "region": "Indian head Subdivision (Canadian Pacific)",
    "cross_note": "AWS",
    "address": "Rge Rd 2170",
    "lat": 50.5,
    "lng": -104.206,
    "select": false
  },
  {
    "id": "24415",
    "location": "1763386",
    "region": "Leduc Subdivision (Canadian Pacific)",
    "cross_note": "AWS",
    "address": "65 Ave",
    "lat": 53.2797,
    "lng": -113.54457,
    "select": false
  },
  {
    "id": "23156",
    "location": "1763462",
    "region": "Indian head Subdivision (Canadian Pacific)",
    "cross_note": "AWS",
    "address": "Ladysmith Rd (Along Twp Rd 180)",
    "lat": 50.4844,
    "lng": -104.343,
    "select": false
  },
  {
    "id": "23161",
    "location": "1763464",
    "region": "Indian head Subdivision (Canadian Pacific)",
    "cross_note": "AWS",
    "address": "Rge Rd 2185 (S. Of Hwy 46)",
    "lat": 50.4755,
    "lng": -104.458,
    "select": false
  },
  {
    "id": "600510",
    "location": "1763390",
    "region": "Leduc Subdivision (Canadian Pacific)",
    "cross_note": "AWS",
    "address": "Ellerslie Rd SW",
    "lat": 53.4248,
    "lng": -113.4854,
    "select": false
  },
  {
    "id": "725011",
    "location": "1763472",
    "region": "K Lead Spur off Headblock Mile 91.47",
    "cross_note": "AWS",
    "address": "Indian head Subdivision (Canadian Pacific)",
    "lat": 50.4782,
    "lng": -104.5589,
    "select": false
  },
  {
    "id": "23172",
    "location": "1763476",
    "region": "Indian head Subdivision (Canadian Pacific)",
    "cross_note": "AWS",
    "address": "Park St (S. Of 6 Ave)",
    "lat": 50.4597,
    "lng": -104.5723,
    "select": false
  },
  {
    "id": "762555",
    "location": "1763395",
    "region": "Leduc Subdivision (Canadian Pacific)",
    "cross_note": "AWS",
    "address": "19 Ave",
    "lat": 53.4468,
    "lng": -113.4897,
    "select": false
  },
  {
    "id": "600488",
    "location": "1763404",
    "region": "Brooks Subdivision (Canadian Pacific)",
    "cross_note": "AWS",
    "address": "Hwy 901 (S. Of Hwy 1)",
    "lat": 50.85492,
    "lng": -113.01686,
    "select": false
  },
  {
    "id": "19832",
    "location": "1763407",
    "region": "Brooks Subdivision (Canadian Pacific)",
    "cross_note": "AWS",
    "address": "Hwy 547 (Along Of Crowfoot St)",
    "lat": 50.86321,
    "lng": -113.05165,
    "select": false
  },
  {
    "id": "19833",
    "location": "1763409",
    "region": "Brooks Subdivision (Canadian Pacific)",
    "cross_note": "AWS",
    "address": "Range Road 231",
    "lat": 50.8706,
    "lng": -113.0744,
    "select": false
  },
  {
    "id": "16890",
    "location": "1763442",
    "region": "Watrous Subdivision (Canadian National)",
    "cross_note": "AWS",
    "address": "Hwy 2",
    "lat": 51.6632,
    "lng": -105.4466,
    "select": false
  },
  {
    "id": "47831",
    "location": "1763445",
    "region": "Watrous Subdivision (Canadian National)",
    "cross_note": "AWS",
    "address": "Grid Road 734",
    "lat": 51.675,
    "lng": -105.4796,
    "select": false
  },
  {
    "id": "19836",
    "location": "1763416",
    "region": "Brooks Subdivision (Canadian Pacific)",
    "cross_note": "AWS",
    "address": "Hwy 901 (Along Twp Rd 223)",
    "lat": 50.877,
    "lng": -113.167,
    "select": false
  },
  {
    "id": "16897",
    "location": "1763448",
    "region": "Watrous Subdivision (Canadian National)",
    "cross_note": "AWS",
    "address": "E-W Grid Road (35-31-26)",
    "lat": 51.707,
    "lng": -105.584,
    "select": false
  },
  {
    "id": "16905",
    "location": "1763451",
    "region": "Watrous Subdivision (Canadian National)",
    "cross_note": "AWS",
    "address": "Grand Avenue",
    "lat": 51.76746,
    "lng": -105.74898,
    "select": false
  },
  {
    "id": "17144",
    "location": "1763490",
    "region": "Wainwright Subdivision (Canadian National)",
    "cross_note": "AWS",
    "address": "Range Road 130",
    "lat": 53.0871,
    "lng": -111.76,
    "select": false
  },
  {
    "id": "17147",
    "location": "1763496",
    "region": "Wainwright Subdivision (Canadian National)",
    "cross_note": "AWS",
    "address": "Range Road 133",
    "lat": 53.1093,
    "lng": -111.833,
    "select": false
  },
  {
    "id": "17167",
    "location": "1763500",
    "region": "Wainwright Subdivision (Canadian National)",
    "cross_note": "AWS",
    "address": "Main Street",
    "lat": 53.2308,
    "lng": -112.237,
    "select": false
  },
  {
    "id": "17174",
    "location": "1763504",
    "region": "Wainwright Subdivision (Canadian National)",
    "cross_note": "AWS",
    "address": "Range Road 171",
    "lat": 53.2698,
    "lng": -112.368,
    "select": false
  }
]